City,Lat,Lng,Max Temp,Humidity,Cloudiness,Wind Speed,Country,Date
Hithadhoo,-0.6,73.08,82.56,78,69,9.24,MV,1600397488
Somanda,-3.37,33.95,61.47,53,56,6.11,TZ,1600397489
Castro,-42.47,-73.77,46.0,83,64,4.14,CL,1600397489
Rivera,-30.91,-55.55,56.32,89,0,4.43,UY,1600397489
Yellowknife,62.46,-114.35,46.4,70,75,12.75,CA,1600397490
Te Anau,-45.42,167.72,44.35,83,100,7.27,NZ,1600397490
Wittmund,53.57,7.78,48.2,76,0,5.82,DE,1600397490
Lorengau,-2.02,147.27,85.77,69,95,6.4,PG,1600397491
Saint-Philippe,-21.36,55.77,66.2,59,42,8.05,RE,1600397491
Ribeira Grande,38.52,-28.7,70.5,78,57,16.4,PT,1600397491
Port Alfred,-33.59,26.89,56.95,77,0,10.78,ZA,1600397491
Haines Junction,60.75,-137.51,43.68,67,99,10.13,CA,1600397492
Butaritari,3.07,172.79,82.27,73,96,12.19,KI,1600397492
Santa Quitéria,-4.33,-40.16,69.96,81,0,3.42,BR,1600397287
Mossamedes,-15.2,12.15,58.86,85,0,2.71,AO,1600397493
Ushuaia,-54.8,-68.3,30.2,86,90,17.22,AR,1600397493
Punta Arenas,-53.15,-70.92,30.2,86,43,25.28,CL,1600397398
Lusambo,-4.97,23.45,71.35,91,32,2.42,CD,1600397493
Souillac,-20.52,57.52,69.8,77,75,13.87,MU,1600397494
Sept-Îles,50.2,-66.38,28.4,86,5,2.24,CA,1600397342
Pisco,-13.7,-76.22,60.8,87,40,9.17,PE,1600397246
Les Cayes,18.2,-73.75,78.28,82,0,2.82,HT,1600397494
Barrow,71.29,-156.79,44.6,81,90,13.87,US,1600397494
Margate,-30.86,30.37,62.19,83,58,12.53,ZA,1600397495
Shakiso,5.75,38.92,55.4,88,43,1.16,ET,1600397495
Sebring,27.5,-81.44,80.6,88,1,5.82,US,1600397495
Saint Paul Harbor,57.79,-152.41,55.4,66,20,11.41,US,1600397409
Santa Isabel Rio Negro,-0.41,-65.02,73.83,96,33,1.23,BR,1600397496
New Norfolk,-42.78,147.06,60.01,54,0,1.01,AU,1600397496
Nara,15.17,-7.29,78.04,66,100,6.91,ML,1600397496
Bluff,-46.6,168.33,50.0,77,100,27.0,NZ,1600397450
Albany,-35.02,117.89,59.0,58,75,14.99,AU,1600397496
Hasaki,35.73,140.83,88.0,70,75,23.04,JP,1600397497
Pangnirtung,66.15,-65.71,33.42,79,2,4.45,CA,1600397497
Bredasdorp,-34.53,20.04,44.6,93,19,1.12,ZA,1600397497
Torbay,47.67,-52.73,64.0,82,75,19.46,CA,1600397497
Kiunga,-6.12,141.29,89.44,60,94,2.82,PG,1600397498
Merowe,18.48,31.82,91.17,17,19,6.85,SD,1600397498
Yulara,-25.24,130.99,66.2,42,0,11.41,AU,1600397498
Tiksi,71.69,128.87,51.12,66,75,21.39,RU,1600397498
Kumul,42.8,93.45,78.39,15,0,7.94,CN,1600397499
Kapaa,22.08,-159.32,86.0,62,40,13.87,US,1600397499
Miastko,54.0,16.98,46.0,83,28,5.53,PL,1600397499
Sioux Lookout,50.1,-91.92,33.8,86,20,2.24,CA,1600397499
Minbu,20.18,94.88,81.5,84,100,3.42,MM,1600397510
Lüderitz,-26.65,15.16,55.83,71,0,13.65,NA,1600397510
Awjilah,29.11,21.29,72.5,74,0,8.84,LY,1600397510
Bethel,41.37,-73.41,62.01,93,1,3.71,US,1600397372
Jamestown,-15.94,-5.72,61.36,82,80,18.39,SH,1600397511
Sitka,57.05,-135.33,57.2,71,75,0.92,US,1600397511
Windhoek,-22.56,17.08,59.0,13,0,3.36,NA,1600397511
Cherskiy,68.75,161.3,36.73,81,98,5.91,RU,1600397511
Hobart,-42.88,147.33,60.01,40,20,8.05,AU,1600397431
Olafsvik,64.89,-23.71,48.6,87,63,20.02,IS,1600397512
Busselton,-33.65,115.33,60.01,58,31,5.01,AU,1600397501
Yinchuan,38.47,106.27,71.73,22,0,2.42,CN,1600397512
Atuona,-9.8,-139.03,77.85,76,26,19.69,PF,1600397498
Goundi,9.36,17.37,72.54,81,100,4.72,TD,1600397513
Longyearbyen,78.22,15.64,37.4,86,75,4.7,SJ,1600397513
Saint-Prosper,46.21,-70.48,37.0,100,0,1.5,CA,1600397513
Vila Velha,-20.33,-40.29,75.99,78,0,11.41,BR,1600397434
Hue,16.47,107.6,80.6,100,90,23.04,VN,1600397513
Kidal,18.44,1.41,85.75,51,92,9.64,ML,1600397514
Tuktoyaktuk,69.45,-133.04,42.8,93,75,9.17,CA,1600397514
Qaanaaq,77.48,-69.36,19.24,88,77,8.9,GL,1600397514
Vaini,-21.2,-175.2,71.6,94,90,11.41,TO,1600397515
Bilibino,68.05,166.44,36.46,80,98,6.35,RU,1600397509
Vadsø,70.07,29.75,42.8,81,75,19.46,NO,1600397515
Whitehorse,60.72,-135.05,57.2,28,75,12.75,CA,1600397515
Castrillón,43.4,-6.79,63.0,93,20,4.7,ES,1600397515
Oudtshoorn,-33.59,22.2,48.2,93,0,4.7,ZA,1600397516
Sault Ste. Marie,46.52,-84.33,44.6,65,1,5.82,CA,1600397246
Mount Gambier,-37.83,140.77,57.2,76,90,12.75,AU,1600397516
Kahului,20.89,-156.47,89.6,46,20,19.46,US,1600397516
Cape Town,-33.93,18.42,48.2,93,3,2.24,ZA,1600397461
Husavik,66.04,-17.34,50.0,61,20,11.41,IS,1600397517
Kalevala,65.2,31.17,35.8,92,100,1.43,RU,1600397517
Westport,53.8,-9.52,57.99,95,90,1.01,IE,1600397517
Dikson,73.51,80.55,44.38,91,69,12.28,RU,1600397517
Pevek,69.7,170.31,33.67,91,96,12.15,RU,1600397518
Muroto-misakicho,33.28,134.15,82.4,88,75,8.05,JP,1600397518
Coquimbo,-29.95,-71.34,53.6,87,0,1.3,CL,1600397518
Carnarvon,-24.87,113.63,80.6,30,0,12.75,AU,1600397364
Cap Malheureux,-19.98,57.61,72.0,64,87,5.01,MU,1600397519
Rikitea,-23.12,-134.97,72.03,82,6,22.3,PF,1600397519
Havre-St-Pierre,50.23,-63.6,37.4,62,1,8.05,CA,1600397519
Ahipara,-35.17,173.17,57.61,80,100,16.62,NZ,1600397519
Hilo,19.73,-155.09,82.4,61,75,9.17,US,1600397520
Hermanus,-34.42,19.23,53.83,80,14,4.92,ZA,1600397515
Puerto Ayora,-0.74,-90.35,66.0,90,79,1.01,EC,1600397520
Durban,-29.86,31.03,62.01,87,23,8.05,ZA,1600397520
Saldanha,-33.01,17.94,44.6,87,72,2.24,ZA,1600397521
Upernavik,72.79,-56.15,29.62,90,5,7.65,GL,1600397531
Provideniya,64.38,-173.3,51.8,66,75,11.18,RU,1600397531
Eyl,7.98,49.82,77.34,76,72,16.22,SO,1600397531
Kontagora,10.4,5.47,71.85,92,82,1.01,NG,1600397531
Aksu,41.12,80.26,75.29,19,28,4.45,CN,1600397532
Filadelfia,-22.35,-60.03,68.43,51,0,2.82,PY,1600397532
Komsomol'skiy,43.98,46.7,68.22,72,100,18.66,RU,1600397532
Edd,13.93,41.69,89.58,52,8,3.62,ER,1600397532
Nouadhibou,20.93,-17.03,78.62,68,35,18.25,MR,1600397533
Mar del Plata,-38.0,-57.56,57.2,47,32,12.88,AR,1600397508
Dunedin,-45.87,170.5,52.0,62,98,32.01,NZ,1600397533
Los Llanos de Aridane,28.66,-17.92,71.6,68,85,5.82,ES,1600397533
Ilulissat,69.22,-51.1,30.2,54,7,2.24,GL,1600397323
Tuatapere,-46.13,167.68,50.0,77,100,27.0,NZ,1600397534
Meulaboh,4.14,96.13,78.1,81,100,2.89,ID,1600397534
Port Augusta,-32.5,137.77,84.99,28,24,20.8,AU,1600397534
San Patricio,19.22,-104.7,79.16,80,100,1.79,MX,1600397534
Georgetown,-7.93,-14.42,72.97,77,100,18.25,SH,1600397535
Khatanga,71.97,102.5,58.08,53,78,16.84,RU,1600397535
Asnæs,55.81,11.5,45.0,89,28,5.35,DK,1600397535
Monrovia,6.3,-10.8,76.23,89,99,10.45,LR,1600397536
San Policarpo,12.18,125.51,82.94,65,100,2.68,PH,1600397536
Marabu,4.41,114.01,89.6,62,20,3.36,MY,1600397536
Chokurdakh,70.63,147.92,44.87,89,100,14.12,RU,1600397537
La Asuncion,11.03,-63.86,80.6,83,79,2.24,VE,1600397537
Cockburn Town,21.46,-71.14,83.16,78,0,12.44,TC,1600397537
Ancud,-41.87,-73.82,46.0,83,94,10.74,CL,1600397537
Port Elizabeth,-33.92,25.57,48.2,93,0,5.01,ZA,1600397538
Rapid Valley,44.06,-103.15,60.8,62,1,9.17,US,1600397538
Kandrian,-6.22,149.55,82.54,78,100,9.89,PG,1600397538
Oussouye,12.48,-16.55,78.8,100,40,4.7,SN,1600397538
Litovko,49.24,135.17,54.23,94,100,10.98,RU,1600397539
Miraflores,1.34,-71.95,72.59,88,98,0.72,CO,1600397539
Leh,34.17,77.58,51.58,44,5,6.13,IN,1600397539
Kieta,-6.22,155.63,81.64,79,100,6.08,PG,1600397540
Chui,-33.7,-53.46,55.33,86,0,8.48,UY,1600397517
East London,-33.02,27.91,59.63,74,31,11.5,ZA,1600397540
Leningradskiy,69.38,178.42,33.58,92,100,17.94,RU,1600397540
Polson,47.69,-114.16,57.99,73,0,2.71,US,1600397541
Paamiut,61.99,-49.67,43.29,81,100,43.73,GL,1600397541
Brownwood,31.71,-98.99,69.8,77,1,6.64,US,1600397541
Gornyak,48.06,37.37,54.64,39,48,5.12,UA,1600397541
Jhanjhārpur,26.27,86.28,83.73,79,25,10.51,IN,1600397542
Saint George,32.38,-64.68,79.0,88,20,9.17,BM,1600397542
Bealanana,-14.55,48.73,55.13,87,96,3.36,MG,1600397552
Hirara,24.8,125.28,87.8,79,75,11.41,JP,1600397552
Orange,-33.28,149.1,64.0,64,100,4.0,AU,1600397357
Lebu,-37.62,-73.65,48.43,83,1,13.06,CL,1600397511
Severnyy-Kospashskiy,59.09,57.8,41.0,100,100,2.26,RU,1600397553
Morozovsk,48.35,41.83,53.13,55,20,9.13,RU,1600397553
Yarkovo,57.4,67.08,47.79,90,100,9.4,RU,1600397554
Hamilton,32.29,-64.78,79.0,88,20,9.17,BM,1600397416
Nanortalik,60.14,-45.24,43.52,90,86,11.86,GL,1600397554
Saint-Pierre,46.77,-56.17,61.61,89,66,22.06,PM,1600397554
Mahébourg,-20.41,57.7,69.8,77,75,13.87,MU,1600397554
Portland,-38.33,141.6,55.87,82,100,11.03,AU,1600397556
Berlevåg,70.86,29.09,42.8,81,90,16.11,NO,1600397556
San Andrés,12.58,-81.7,84.4,70,28,2.86,CO,1600397556
Roi Et,16.06,103.65,77.0,100,75,9.17,TH,1600397557
Byron Bay,-28.65,153.62,75.0,73,40,12.75,AU,1600397558
Soe,-9.86,124.28,87.55,34,8,6.82,ID,1600397558
Paramonga,-10.67,-77.83,59.18,87,13,4.72,PE,1600397559
Makakilo City,21.35,-158.09,87.8,58,40,9.17,US,1600397513
Ciudad Bolivar,8.12,-63.55,81.23,70,72,5.41,VE,1600397559
Turukhansk,65.82,87.98,53.64,80,100,10.83,RU,1600397559
Vardø,70.37,31.11,42.8,81,75,19.46,NO,1600397560
Wilmington,34.23,-77.94,79.0,94,90,14.52,US,1600397446
Celestún,20.87,-90.4,83.21,80,37,3.53,MX,1600397560
Nantong,32.03,120.87,68.0,80,100,5.68,CN,1600397303
Talnakh,69.49,88.4,50.0,93,40,11.18,RU,1600397561
Arraial do Cabo,-22.97,-42.03,71.6,88,0,9.17,BR,1600397561
Kayerkan,69.35,87.76,50.0,93,40,11.18,RU,1600397561
Tutóia,-2.76,-42.27,79.34,78,45,14.25,BR,1600397561
Hirado,33.36,129.55,75.2,78,75,14.99,JP,1600397561
Kruisfontein,-34.0,24.73,48.94,87,0,4.59,ZA,1600397562
Nuuk,64.18,-51.72,37.4,69,100,13.87,GL,1600397562
Tasiilaq,65.61,-37.64,37.4,69,100,2.71,GL,1600397562
Hiroshima,34.4,132.46,75.2,73,75,10.29,JP,1600397562
Katsuura,35.13,140.3,87.8,66,75,26.4,JP,1600397563
Sobolevo,54.43,31.9,46.11,85,100,18.32,RU,1600397563
Mehrān,33.12,46.16,68.0,14,0,6.93,IR,1600397563
Ponta do Sol,17.2,-25.09,80.6,88,20,3.36,CV,1600397564
Måløy,61.94,5.11,55.99,100,90,12.75,NO,1600397564
Cēsis,57.31,25.27,46.99,77,47,5.01,LV,1600397564
Pirmasens,49.2,7.61,57.0,100,1,5.82,DE,1600397564
Guerrero Negro,27.98,-114.06,82.89,42,0,8.72,MX,1600397565
Alofi,-19.06,-169.92,75.2,88,75,16.11,NU,1600397565
Thompson,55.74,-97.86,32.0,86,20,4.25,CA,1600397565
Cabo San Lucas,22.89,-109.91,84.2,62,40,2.42,MX,1600397512
Fortuna,40.6,-124.16,66.99,88,40,5.82,US,1600397575
San Cristobal,-0.9,-89.62,66.09,86,19,11.65,EC,1600397576
Aswān,24.09,32.91,86.34,25,0,9.37,EG,1600397291
Jalu,29.03,21.55,73.24,71,0,9.08,LY,1600397576
Clyde River,70.47,-68.59,33.8,85,90,2.24,CA,1600397576
Kaitangata,-46.28,169.85,51.01,62,100,21.0,NZ,1600397577
Olinda,-8.01,-34.86,77.0,73,40,8.05,BR,1600397577
Saskylakh,71.92,114.08,56.35,58,0,11.1,RU,1600397577
Caiapônia,-16.96,-51.81,77.99,26,82,1.28,BR,1600397577
Atar,20.52,-13.05,94.28,14,0,9.84,MR,1600397578
Half Moon Bay,37.46,-122.43,72.0,93,90,5.82,US,1600397578
São João da Barra,-21.64,-41.05,72.79,80,0,19.17,BR,1600397578
Songea,-10.68,35.65,60.15,90,0,6.69,TZ,1600397578
Avarua,-21.21,-159.78,73.4,73,91,13.87,CK,1600397578
Sørland,67.67,12.69,51.48,85,100,31.7,NO,1600397527
Napāsar,27.97,73.55,92.7,47,0,14.58,IN,1600397579
São Filipe,14.9,-24.5,79.65,84,0,7.9,CV,1600397579
Necochea,-38.55,-58.74,46.0,3,62,1.01,AR,1600397580
Tarnogskiy Gorodok,60.5,43.58,47.35,96,100,10.76,RU,1600397580
Puerto Escondido,15.85,-97.07,77.0,69,90,9.17,MX,1600397426
Zverinogolovskoye,54.46,64.85,47.82,82,94,9.51,RU,1600397580
Prince Rupert,54.32,-130.32,60.8,93,1,4.7,CA,1600397581
Nikolskoye,59.7,30.79,46.4,87,90,13.42,RU,1600397581
Merrill,45.18,-89.68,50.0,61,1,6.93,US,1600397581
Liverpool,44.03,-64.72,57.99,88,100,2.26,CA,1600397581
Lavrentiya,65.58,-171.0,46.96,75,100,10.56,RU,1600397582
Eldorado,24.32,-107.36,86.0,79,40,5.82,MX,1600397582
Victoria,-4.62,55.45,78.8,83,75,13.87,SC,1600397582
Burnie,-41.07,145.92,55.0,53,9,8.99,AU,1600397583
Soldotna,60.49,-151.06,59.0,41,90,12.75,US,1600397583
Magadan,59.57,150.8,52.95,51,0,1.86,RU,1600397584
Kaoma,-14.78,24.8,63.7,47,0,4.23,ZM,1600397584
Terrace,54.52,-128.6,64.4,72,20,0.4,CA,1600397584
Samfya,-11.36,29.56,67.48,48,41,9.37,ZM,1600397584
Cidreira,-30.18,-50.21,59.97,89,1,6.51,BR,1600397528
Geraldton,-28.77,114.6,69.8,35,0,17.22,AU,1600397562
Bengkulu,-3.8,102.27,83.84,66,40,5.53,ID,1600397585
Havelock,34.88,-76.9,80.01,100,75,5.82,US,1600397585
Dwārka,22.24,68.97,83.53,79,53,12.35,IN,1600397585
Kloulklubed,7.04,134.26,80.6,83,75,5.82,PW,1600397586
Mount Isa,-20.73,139.5,89.6,38,40,14.99,AU,1600397586
Vila Franca do Campo,37.72,-25.43,68.0,72,20,10.29,PT,1600397596
Bambous Virieux,-20.34,57.76,72.0,77,75,13.87,MU,1600397596
Siderno,38.28,16.3,77.0,73,20,8.05,IT,1600397597
Buala,-8.14,159.59,80.92,84,100,11.45,SB,1600397597
Narsaq,60.92,-46.05,44.6,70,100,5.82,GL,1600397597
Salinas,-2.22,-80.97,69.35,85,85,10.83,EC,1600397597
Bandar,2.05,99.75,87.89,55,99,2.77,ID,1600397598
Pringsewu,-5.36,104.97,88.45,50,24,2.91,ID,1600397598
Buenos Aires,9.17,-83.33,74.26,82,100,0.85,CR,1600397598
Charlottesville,38.03,-78.48,66.2,93,90,5.82,US,1600397598
Ormara,25.21,64.64,85.66,39,10,7.96,PK,1600397599
Tateyama,34.98,139.87,87.01,83,75,25.28,JP,1600397599
Rixheim,47.75,7.4,59.0,82,75,8.05,FR,1600397599
Laguna,-28.48,-48.78,61.11,95,68,0.54,BR,1600397600
Santarém,-2.44,-54.71,78.8,94,8,0.94,BR,1600397600
Muros,42.78,-9.06,62.01,95,60,3.0,ES,1600397600
Norman Wells,65.28,-126.83,57.2,54,40,5.82,CA,1600397600
Khanbari,27.37,87.2,75.94,74,97,0.11,NP,1600397600
Broken Hill,-31.95,141.43,77.0,41,75,17.22,AU,1600397595
Henties Bay,-22.12,14.28,53.01,93,0,4.0,NA,1600397601
Bantou,26.22,117.49,80.29,74,96,3.29,CN,1600397601
Padang,-0.95,100.35,83.89,65,100,6.33,ID,1600397601
Boguchany,58.38,97.45,58.66,58,100,8.75,RU,1600397601
Fukuechō,32.69,128.84,69.8,88,75,14.99,JP,1600397603
Valleyview,55.07,-117.29,55.62,80,0,9.51,CA,1600397603
Kutum,14.2,24.67,75.72,42,43,2.42,SD,1600397603
Totoral,-18.52,-66.87,43.07,59,100,2.21,BO,1600397603
Dunhua,43.37,128.24,58.8,68,45,16.31,CN,1600397604
Bonavista,48.65,-53.11,59.9,88,100,17.65,CA,1600397604
São Caetano de Odivelas,-0.75,-48.02,78.87,78,0,9.6,BR,1600397604
Lodwar,3.12,35.6,79.47,48,59,15.77,KE,1600397605
Nanaimo,49.17,-123.94,66.99,82,90,4.7,CA,1600397342
Ostrovnoy,68.05,39.51,39.25,83,100,6.29,RU,1600397605
Xinmin,41.99,122.83,68.0,45,0,11.18,CN,1600397606
Maceió,-9.67,-35.74,68.0,94,20,2.24,BR,1600397396
Cuaspud,0.86,-77.73,48.0,92,74,1.83,CO,1600397606
Tilichiki,60.47,166.1,49.48,63,69,9.08,RU,1600397606
Bathsheba,13.22,-59.52,77.0,83,20,5.82,BB,1600397606
Plettenberg Bay,-34.05,23.37,54.99,72,0,3.44,ZA,1600397607
Kyabé,9.45,18.94,72.5,91,100,0.98,TD,1600397607
Tanout,14.97,8.89,83.53,50,0,12.1,NE,1600397607
Rørvik,64.86,11.24,54.45,92,100,35.7,NO,1600397607
Martapura,-3.42,114.85,87.8,62,20,8.05,ID,1600397608
Honningsvåg,70.98,25.97,42.8,81,90,16.11,NO,1600397608
Ulaanbaatar,47.91,106.88,48.2,49,0,2.24,MN,1600397608
Cayenne,4.93,-52.33,77.0,94,0,2.24,GF,1600397609
Pitsunda,43.16,40.34,71.6,73,20,11.18,GE,1600397619
Clarksdale,34.2,-90.57,71.6,73,88,7.7,US,1600397619
Adrar,25.75,-1.0,85.91,22,0,10.16,DZ,1600397620
Kawalu,-7.38,108.21,85.98,50,10,4.34,ID,1600397620
Lagoa,39.05,-27.98,70.21,80,73,17.92,PT,1600397620
Pleasant Point,-44.27,171.13,56.48,50,10,10.89,NZ,1600397620
Khovd,48.01,91.64,62.67,29,42,2.48,MN,1600397621
Aleksandrovsk-Sakhalinskiy,50.9,142.16,63.9,89,76,7.16,RU,1600397621
Marsh Harbour,26.54,-77.06,83.68,72,91,9.17,BS,1600397621
Aykhal,66.0,111.5,55.4,43,1,6.71,RU,1600397621
Muğla Province,37.23,28.36,69.8,82,0,2.24,TR,1600397388
Willmar,45.12,-95.04,48.99,70,1,3.83,US,1600397622
Kavieng,-2.57,150.8,84.18,74,99,8.05,PG,1600397622
Kungurtug,50.6,97.52,62.76,35,17,1.25,RU,1600397622
Okrika,4.74,7.08,75.2,100,75,4.36,NG,1600397622
Raudeberg,61.99,5.14,55.99,83,100,30.0,NO,1600397623
Korla,41.76,86.15,76.5,18,33,15.73,CN,1600397450
Kirakira,-10.45,161.92,83.1,78,100,13.56,SB,1600397623
Pacific Grove,36.62,-121.92,66.0,91,64,5.1,US,1600397520
Albury,-36.08,146.92,63.0,82,40,6.93,AU,1600397460
Grindavik,63.84,-22.43,46.4,93,75,21.92,IS,1600397624
Sibolga,1.74,98.78,83.08,70,81,2.44,ID,1600397348
Saint Albans,38.39,-81.84,66.0,91,5,5.23,US,1600397624
Rundu,-17.93,19.77,64.0,36,0,0.96,NA,1600397624
Pokhara,28.23,83.98,76.44,77,73,3.09,NP,1600397373
Naze,28.37,129.48,86.0,84,75,9.17,JP,1600397625
Severo-Kuril'sk,50.68,156.12,55.22,84,100,4.7,RU,1600397625
Khāsh,28.22,61.22,66.36,24,0,2.15,IR,1600397625
Nan,18.83,100.67,82.4,88,40,4.7,TH,1600397626
Bajil,15.06,43.29,86.49,69,1,3.27,YE,1600397576
Plastun,44.76,136.29,68.09,66,1,6.15,RU,1600397418
Panjāb,34.39,67.02,42.66,62,0,5.55,AF,1600397626
Voskevan,41.12,45.07,66.2,77,90,1.12,AM,1600397626
Qarqīn,37.42,66.04,62.51,31,0,10.71,AF,1600397627
Mackay,-21.15,149.2,78.01,65,40,17.22,AU,1600397627
Kijang,0.9,104.63,84.2,79,40,8.05,ID,1600397627
Santa Rosa,-36.62,-64.28,58.93,32,81,12.21,AR,1600397627
Bariloche,-41.15,-71.31,41.0,65,40,27.51,AR,1600397627
Yar-Sale,66.83,70.83,46.38,91,100,7.52,RU,1600397628
Iralaya,15.0,-83.23,82.02,80,12,7.56,HN,1600397628
Tura,64.28,100.25,53.2,59,67,8.37,RU,1600397628
Thinadhoo,0.53,72.93,83.03,75,71,9.4,MV,1600397612
Emerald,-23.53,148.17,82.4,32,0,14.99,AU,1600397629
Voh,-20.97,164.7,80.02,57,1,12.95,NC,1600397629
Partizanskoye,55.5,94.39,61.21,63,88,11.16,RU,1600397630
Lautaro,-38.52,-72.45,44.6,100,40,3.36,CL,1600397630
Klaksvík,62.23,-6.59,51.8,93,86,10.29,FO,1600397565
Cascas,-7.48,-78.82,61.88,66,98,0.47,PE,1600397641
Jiuquan,39.74,98.52,69.48,21,0,8.39,CN,1600397440
Kamenka,51.32,42.77,54.0,45,100,16.46,RU,1600397641
Kavaratti,10.57,72.64,82.42,80,100,21.61,IN,1600397641
Semey,50.41,80.23,59.0,47,96,22.37,KZ,1600397642
Gafargaon,24.43,90.57,82.4,78,75,6.64,BD,1600397642
Deputatsky,69.3,139.9,42.26,88,100,11.21,RU,1600397642
Panique,12.48,122.02,82.63,74,100,6.64,PH,1600397643
Matara,5.95,80.54,80.69,83,100,12.93,LK,1600397643
Mehamn,71.04,27.85,42.8,81,90,16.11,NO,1600397643
Banda Aceh,5.56,95.32,84.45,66,100,14.54,ID,1600397348
Kenai,60.55,-151.26,59.0,47,90,14.99,US,1600397643
Svetlaya,46.54,138.33,64.42,70,0,5.68,RU,1600397644
Gannan,47.91,123.5,58.75,82,80,10.09,CN,1600397644
Lashio,22.93,97.75,79.7,77,100,1.25,MM,1600397644
Hambantota,6.12,81.12,82.4,88,40,12.75,LK,1600397645
Piaçabuçu,-10.41,-36.43,71.55,83,0,3.49,BR,1600397645
Vestmannaeyjar,63.44,-20.27,49.75,75,100,18.95,IS,1600397645
Turka,52.95,108.22,57.0,56,0,3.22,RU,1600397645
Vostok,46.49,135.88,59.9,83,5,4.23,RU,1600397646
Kharan,28.58,65.42,72.88,21,0,5.17,PK,1600397646
Moose Factory,51.26,-80.61,39.2,69,1,10.29,CA,1600397646
Kottagūdem,17.55,80.63,84.7,78,0,0.4,IN,1600397646
Mwinilunga,-11.74,24.43,64.54,71,95,4.45,ZM,1600397647
Frunze,48.67,38.75,54.82,38,95,6.46,UA,1600397647
Adjumani,3.38,31.79,67.17,97,77,1.41,UG,1600397647
Tautira,-17.73,-149.15,84.2,62,40,3.36,PF,1600397648
El Salto,20.33,-104.5,69.01,92,100,5.01,MX,1600397648
Lampang,18.33,99.5,88.0,74,75,3.36,TH,1600397648
Peniche,39.36,-9.38,64.0,85,83,8.99,PT,1600397649
Pathein,16.78,94.73,86.67,74,84,6.64,MM,1600397649
Englewood,39.65,-104.99,66.99,46,34,3.65,US,1600397649
Zapolyarnyy,69.42,30.81,41.0,80,100,23.04,RU,1600397649
La Ronge,55.1,-105.28,41.0,86,40,4.29,CA,1600397650
Warmbad,-28.45,18.73,55.4,33,0,5.35,NA,1600397650
Salalah,17.02,54.09,80.6,83,75,8.05,OM,1600397650
Arti,56.42,58.53,39.78,91,61,8.16,RU,1600397650
Ketchikan,55.34,-131.65,62.6,77,90,5.82,US,1600397371
Wenling,28.37,121.36,77.0,83,96,13.89,CN,1600397651
Constantine,36.37,6.61,60.8,67,49,2.24,DZ,1600397651
Chapleau,47.84,-83.4,33.46,87,54,4.18,CA,1600397651
Yellandu,17.6,80.33,83.71,79,0,1.3,IN,1600397652
Kishorganj,24.43,90.77,85.69,75,43,5.59,BD,1600397652
Biltine,14.53,20.92,83.88,33,49,7.29,TD,1600397662
Aklavik,68.22,-135.01,51.8,66,75,6.93,CA,1600397605
Ngozi,-2.91,29.83,57.07,73,68,1.28,BI,1600397662
Ikryanoye,46.09,47.73,48.2,81,56,6.71,RU,1600397663
Tsiroanomandidy,-18.77,46.03,58.87,72,4,2.48,MG,1600397663
Praia,14.92,-23.51,79.56,82,0,6.64,CV,1600397642
Port Blair,11.67,92.75,79.57,87,100,17.96,IN,1600397553
Faanui,-16.48,-151.75,78.28,78,14,15.03,PF,1600397664
Gladstone,-23.85,151.25,77.0,50,14,16.11,AU,1600397664
Kysyl-Syr,63.9,122.76,56.5,55,0,1.61,RU,1600397664
Sarkand,45.41,79.92,49.64,62,100,6.26,KZ,1600397664
Havøysund,71.0,24.66,44.6,75,20,24.16,NO,1600397665
Borogontsy,62.67,131.17,56.86,41,0,4.23,RU,1600397665
Neftçala,39.37,49.25,75.2,68,71,14.81,AZ,1600397665
Xiongzhou,25.12,114.3,72.34,80,97,5.35,CN,1600397666
Yanam,16.73,82.22,84.2,79,75,5.82,IN,1600397666
Saint-François,16.25,-61.27,77.0,94,20,6.78,GP,1600397666
Ngunguru,-35.62,174.5,61.0,3,100,13.0,NZ,1600397666
Jackson,42.42,-122.83,77.0,41,40,4.7,US,1600397063
Havre,48.55,-109.68,64.4,45,1,11.41,US,1600397527
Alyangula,-13.85,136.42,87.8,58,90,14.99,AU,1600397667
Adavere,58.71,25.9,48.0,81,99,13.87,EE,1600397667
Baião,-2.79,-49.67,80.71,74,66,5.93,BR,1600397667
Gamba,-2.65,10.0,74.21,91,100,7.49,GA,1600397651
Kholodnyy,62.72,147.95,46.81,53,1,1.39,RU,1600397668
Ponta Delgada,37.73,-25.67,68.0,72,20,10.29,PT,1600397668
Beaufort,5.35,115.75,87.8,66,20,4.7,MY,1600397668
Lompoc,34.64,-120.46,66.0,88,20,8.05,US,1600397584
Alta Floresta,-9.88,-56.09,75.51,40,28,2.15,BR,1600397669
Bondo,3.81,23.69,68.58,97,100,0.76,CD,1600397669
Batī,11.18,40.02,67.71,72,31,4.56,ET,1600397669
Mayo,63.59,-135.9,60.8,38,90,10.29,CA,1600397669
Kudahuvadhoo,2.67,72.89,82.54,78,100,12.03,MV,1600397670
Salaberry-de-Valleyfield,45.25,-74.13,48.0,66,0,3.49,CA,1600397521
Warrington,30.38,-87.28,80.6,94,1,3.36,US,1600397670
Tanete,-3.94,119.78,93.07,45,47,9.6,ID,1600397670
Svetlogorsk,54.94,20.15,55.4,62,40,13.42,RU,1600397670
Booué,-0.09,11.94,72.18,96,100,2.42,GA,1600397671
Esperance,-33.87,121.9,57.2,100,75,8.05,AU,1600397528
Santa Marta,11.24,-74.2,79.75,77,95,4.59,CO,1600397618
Qasigiannguit,68.82,-51.19,30.2,54,7,2.24,GL,1600397671
Charters Towers,-20.1,146.27,82.36,46,80,16.53,AU,1600397671
Port Keats,-14.25,129.55,85.5,61,45,8.88,AU,1600397672
Waipawa,-41.41,175.52,51.01,71,66,9.17,NZ,1600397672
Kaélé,10.11,14.45,72.43,92,100,8.37,CM,1600397672
Tessalit,20.2,1.01,85.57,43,49,3.67,ML,1600397636
Touros,-5.2,-35.46,73.4,83,20,3.36,BR,1600397535
Tazovsky,67.47,78.7,46.02,85,35,9.26,RU,1600397517
Ust-Kuyga,70.02,135.6,51.33,72,98,7.92,RU,1600397683
Rawson,-43.3,-65.1,50.05,46,5,24.81,AR,1600397683
Lakatoro,-16.1,167.42,82.4,78,75,6.93,VU,1600397683
Payson,40.04,-111.73,75.2,57,1,4.36,US,1600397684
Zemio,5.03,25.14,69.58,95,99,1.12,CF,1600397684
Ossora,59.24,163.07,53.42,48,62,6.98,RU,1600397684
Dagda,56.1,27.54,47.46,69,100,16.69,LV,1600397684
Campbell River,50.02,-125.24,64.4,93,90,2.24,CA,1600397525
San Fernando del Valle de Catamarca,-28.47,-65.79,46.0,53,0,1.01,AR,1600397585
Whitehaven,54.55,-3.58,48.99,86,26,3.09,GB,1600397685
Dibulla,11.27,-73.31,77.61,75,73,4.29,CO,1600397685
Sovetskiy,61.36,63.58,42.96,76,100,7.94,RU,1600397686
Sirte,31.21,16.59,75.06,74,0,7.49,LY,1600397686
Nakusp,50.25,-117.8,54.0,94,0,2.35,CA,1600397686
College,64.86,-147.8,62.6,76,75,3.78,US,1600397671
Riyadh,24.69,46.72,78.8,26,20,3.36,SA,1600397651
Viedma,-40.81,-63.0,52.39,41,10,19.08,AR,1600397687
Nikolayevsk-on-Amur,53.14,140.73,55.54,92,100,6.85,RU,1600397687
Washington,47.5,-120.5,71.01,52,0,3.0,US,1600397168
Lewisburg,35.45,-86.79,69.01,82,99,7.47,US,1600397687
Camocim,-2.9,-40.84,74.77,87,1,9.55,BR,1600397687
Hluti,-27.22,31.62,54.16,98,1,1.68,SZ,1600397688
Smithers,54.78,-127.17,60.8,82,40,3.36,CA,1600397564
Aksarka,66.56,67.8,44.13,88,100,13.78,RU,1600397688
Mikkeli,61.69,27.27,42.8,81,90,5.82,FI,1600397688
Saint-Georges,3.9,-51.8,73.54,95,12,3.69,GF,1600397688
Guilin,25.28,110.29,71.6,68,90,8.95,CN,1600397689
Vieux Fort,13.72,-60.95,79.0,94,20,5.44,LC,1600397479
Iqaluit,63.75,-68.51,35.6,59,40,14.99,CA,1600397689
Mikhaylovka,43.0,71.5,50.0,71,67,4.47,KZ,1600397689
Topeka,39.05,-95.68,62.6,77,1,6.6,US,1600397585
Kurchum,48.57,83.65,54.79,65,100,7.63,KZ,1600397690
Muzhi,65.37,64.67,43.47,78,64,17.63,RU,1600397690
Miyako,39.64,141.95,73.67,83,100,4.63,JP,1600397690
Abu Dhabi,24.47,54.37,82.4,83,0,8.05,AE,1600397398
Channel-Port aux Basques,47.57,-59.14,52.0,86,65,9.08,CA,1600397691
Bongaree,-27.08,153.16,77.0,64,0,12.57,AU,1600397691
Isangel,-19.55,169.27,80.6,78,75,11.41,VU,1600397691
Gulāothi,28.6,77.78,87.01,70,20,6.93,IN,1600397691
Port Lincoln,-34.73,135.87,66.02,72,51,17.38,AU,1600397692
Castro Alves,-12.77,-39.43,63.43,97,5,3.78,BR,1600397692
Chūru,28.3,74.95,93.24,41,0,12.3,IN,1600397692
Akureyri,65.68,-18.09,50.0,61,20,11.41,IS,1600397692
Alto Araguaia,-17.31,-53.22,73.8,36,56,3.02,BR,1600397693
Arrondissement de Mende,44.67,3.5,52.23,92,10,4.79,FR,1600397693
Kouqian,43.64,126.46,55.78,80,87,11.41,CN,1600397703
Kaeo,-35.1,173.78,61.0,3,100,13.0,NZ,1600397573
Walvis Bay,-22.96,14.51,53.01,93,0,9.17,NA,1600397703
Nome,64.5,-165.41,46.99,87,90,6.93,US,1600397704
Andros,37.83,24.93,72.0,89,5,8.79,GR,1600397704
Gurupi,-11.73,-49.07,81.0,34,0,3.22,BR,1600397704
Challapata,-18.9,-66.77,49.35,44,95,1.92,BO,1600397705
Kuvshinovo,57.03,34.17,44.78,94,82,7.18,RU,1600397705
Mahajanga,-15.72,46.32,68.0,72,20,5.82,MG,1600397705
Chiredzi,-21.05,31.67,65.95,91,20,7.02,ZW,1600397705
Castaños,26.78,-101.42,74.08,66,83,6.69,MX,1600397706
Rossano,39.58,16.63,68.0,60,54,4.38,IT,1600397506
Bonthe,7.53,-12.51,76.89,86,100,2.39,SL,1600397706
Tiznit Province,29.58,-9.5,73.9,56,94,0.22,MA,1600397706
San Rafael,-34.62,-68.33,66.0,26,5,10.47,AR,1600397706
Karasburg,-28.02,18.75,56.46,32,0,8.46,NA,1600397707
Hanchuan,30.65,113.77,69.8,77,40,4.47,CN,1600397707
Ust-Maya,60.42,134.53,58.24,45,0,2.8,RU,1600397707
Chitral,35.85,71.79,69.35,24,0,2.98,PK,1600397708
Hofn,64.25,-15.21,48.47,68,0,4.45,IS,1600397708
Batagay-Alyta,67.8,130.41,50.45,47,0,2.44,RU,1600397643
Pimampiro,0.4,-77.97,59.92,71,48,1.68,EC,1600397709
Abonnema,4.71,6.79,75.2,100,75,4.52,NG,1600397709
George,-33.96,22.46,48.2,93,0,4.7,ZA,1600397710
Darhan,49.49,105.92,58.48,58,0,4.12,MN,1600397710
Demyansk,57.64,32.47,45.36,94,89,5.48,RU,1600397710
Acapulco de Juárez,16.86,-99.89,77.0,94,90,11.41,MX,1600397671
Kiama,-34.68,150.87,62.01,83,100,1.99,AU,1600397710
Lafia,8.48,8.52,72.52,96,99,3.8,NG,1600397711
Port Hedland,-20.32,118.57,86.0,17,0,16.11,AU,1600397711
Karlskrona,56.16,15.59,33.8,100,49,2.24,SE,1600397711
Nemuro,43.32,145.57,64.4,100,75,6.93,JP,1600397604
Makīnsk,52.63,70.42,48.06,90,96,16.15,KZ,1600397712
Parangan,5.08,119.94,84.99,74,86,12.57,PH,1600397712
San Pedro,-16.24,-68.85,39.72,94,100,12.15,BO,1600397712
Constitucion,23.99,-104.67,63.0,82,56,8.99,MX,1600397712
Ndélé,8.41,20.65,72.21,91,100,0.89,CF,1600397713
San Martín,-33.08,-68.47,66.2,26,0,4.7,AR,1600397713
Batagay,67.63,134.63,53.11,49,13,2.04,RU,1600397713
Bam,29.11,58.36,72.21,22,0,11.59,IR,1600397714
Ust-Nera,64.57,143.2,49.82,46,10,3.49,RU,1600397714
Bulawayo,-20.15,28.58,63.7,63,30,8.93,ZW,1600397714
Pengcheng,36.43,114.17,86.83,16,0,11.52,CN,1600397714
Flinders,-34.58,150.86,62.01,83,100,1.99,AU,1600397715
Garoowe,8.41,48.48,73.63,72,28,14.14,SO,1600397715
Erciş,39.03,43.36,68.0,24,0,10.29,TR,1600397712
Gold Coast,-28.0,153.43,78.01,64,40,14.99,AU,1600397654
Klooga,59.32,24.21,48.2,70,40,13.87,EE,1600397715
Copperas Cove,31.12,-97.9,75.2,73,1,4.7,US,1600397726
Abnūb,27.27,31.15,78.24,47,0,7.2,EG,1600397726
Port Hardy,50.7,-127.42,64.4,88,75,6.93,CA,1600397726
Shahr-e Bābak,30.12,55.12,56.62,37,0,5.03,IR,1600397727
Arrondissement de Rennes,48.17,-1.67,60.8,48,5,11.41,FR,1600397602
Vao,-22.67,167.48,71.74,85,30,19.57,NC,1600397727
Kota Kinabalu,5.97,116.07,87.8,70,20,4.7,MY,1600397727
Antsohihy,-14.88,47.99,63.43,83,75,4.16,MG,1600397651
Kärdla,59.0,22.75,48.0,79,4,11.99,EE,1600397728
Manaure,11.78,-72.44,84.58,70,3,11.12,CO,1600397728
Nyurba,63.28,118.33,54.9,56,0,3.56,RU,1600397728
Evensk,61.95,159.23,50.97,46,23,9.75,RU,1600397728
Naryan-Mar,67.67,53.09,39.96,72,100,8.12,RU,1600397729
San Quintín,30.48,-115.95,78.46,47,15,11.14,MX,1600397729
Mayskiy,47.69,40.1,55.4,47,10,11.18,RU,1600397729
Jinchang,38.5,102.17,68.02,24,0,6.24,CN,1600397730
Dingle,52.14,-10.27,56.89,86,36,7.45,IE,1600397730
Ixtapa,20.7,-105.2,78.8,94,90,3.36,MX,1600397730
Mayumba,-3.43,10.66,74.52,90,100,7.14,GA,1600397647
Xinyu,27.8,114.93,66.79,84,100,6.46,CN,1600397731
Alenquer,-1.94,-54.74,78.8,94,0,4.0,BR,1600397731
Yuzhnoural'sk,54.44,61.25,43.09,84,24,8.79,RU,1600397731
Khilok,51.37,110.47,59.45,54,0,0.02,RU,1600397731
Acajutla,13.59,-89.83,73.0,98,90,3.51,SV,1600397565
Chermoz,58.79,56.15,42.96,84,100,12.06,RU,1600397732
Carutapera,-1.2,-46.02,77.72,84,0,6.49,BR,1600397625
Aviemore,57.2,-3.83,55.99,93,20,6.93,GB,1600397732
Alice Springs,-23.7,133.88,87.8,16,20,21.92,AU,1600397733
Ambāgarh Chauki,20.78,80.72,83.79,76,96,4.27,IN,1600397733
Sola,-13.88,167.55,80.15,84,100,20.27,VU,1600397733
Taganak,6.08,118.3,86.0,79,40,8.05,PH,1600397733
Tevaitoa,-16.78,-151.5,79.16,75,4,13.13,PF,1600397734
El Alto,-4.27,-81.21,60.19,92,50,12.12,PE,1600397734
Ilek,51.53,53.38,47.89,74,100,5.86,RU,1600397734
Portel,-1.94,-50.82,78.75,82,12,7.65,BR,1600397734
Oktyabr'skoye,43.06,44.74,48.2,93,100,4.47,RU,1600397735
Black River,18.03,-77.85,80.6,83,20,3.36,JM,1600397735
Punta de Bombón,-17.17,-71.79,60.28,80,82,4.74,PE,1600397735
Mweka,-4.85,21.57,69.28,96,86,2.19,CD,1600397736
Palauig,15.44,119.9,87.13,63,75,9.71,PH,1600397736
Ferma,57.9,56.31,39.2,100,99,6.71,RU,1600397736
Kachkanar,58.7,59.49,38.55,81,92,5.68,RU,1600397603
Kawambwa,-9.79,29.08,66.38,41,84,4.61,ZM,1600397737
Flin Flon,54.77,-101.86,39.87,69,0,3.85,CA,1600397737
Poum,-20.23,164.02,73.0,77,0,10.33,NC,1600397586
Acaraú,-2.89,-40.12,76.89,85,1,13.2,BR,1600397738
Catacamas,14.8,-85.9,75.6,78,29,3.94,HN,1600397748
Agüimes,27.91,-15.45,73.99,73,20,23.04,ES,1600397749
Esim,4.87,-2.24,74.05,89,85,6.06,GH,1600397749
Shimoda,34.67,138.95,84.2,83,75,25.28,JP,1600397749
Chaman,30.92,66.45,73.36,18,0,2.01,PK,1600397749
Solnechnyy,50.72,136.63,48.6,89,100,9.22,RU,1600397750
Baykit,61.67,96.37,56.71,57,100,11.36,RU,1600397750
Kishanpur,25.65,81.02,89.58,56,2,6.69,IN,1600397750
Arlit,18.74,7.39,87.12,40,100,1.61,NE,1600397751
Addis Ababa,9.03,38.75,57.2,82,20,2.24,ET,1600397751
Gizo Government Station,-8.1,156.84,83.37,72,95,9.28,SB,1600397752
Kamina,-8.74,24.99,69.85,72,97,4.36,CD,1600397752
Aloleng,16.13,119.78,85.89,67,3,8.7,PH,1600397752
Bang Rakam,16.76,100.12,84.2,89,20,3.36,TH,1600397752
Coatepec,19.45,-96.97,66.22,84,100,3.62,MX,1600397614
Robertsport,6.75,-11.37,77.41,85,100,9.98,LR,1600397753
Dawson Creek,55.77,-120.24,64.4,63,1,6.93,CA,1600397753
Jasper,52.88,-118.09,60.19,57,23,0.74,CA,1600397753
Binzhou,37.37,118.02,82.99,29,0,1.99,CN,1600397753
Brigham City,41.51,-112.02,73.0,30,1,6.31,US,1600397754
Yerofey Pavlovich,53.97,121.97,51.62,60,100,5.17,RU,1600397754
Almaznyy,48.04,40.05,55.4,47,23,11.18,RU,1600397754
Natitingou,10.3,1.38,69.37,97,15,2.62,BJ,1600397754
Srednekolymsk,67.45,153.68,42.06,88,99,15.75,RU,1600397755
Qaqortoq,60.72,-46.03,44.6,70,100,5.82,GL,1600397755
Trincomalee,8.57,81.23,83.97,71,92,18.23,LK,1600397755
Caravelas,-17.71,-39.25,70.45,81,75,6.69,BR,1600397756
Diffa,13.32,12.61,83.59,53,1,8.32,NE,1600397756
Moreira Sales,-24.06,-53.01,65.5,79,100,2.26,BR,1600397756
Ambilobe,-13.2,49.05,66.09,76,88,4.21,MG,1600397757
Sistranda,63.73,8.83,55.4,93,75,28.86,NO,1600397757
Mattru,7.62,-11.83,72.86,97,100,2.04,SL,1600397757
Ullapool,57.9,-5.16,57.0,84,47,1.01,GB,1600397757
Vuktyl,63.86,57.31,35.11,87,94,6.46,RU,1600397757
Ocosingo,17.07,-92.25,66.58,98,100,2.26,MX,1600397758
Kismayo,-0.36,42.55,77.02,83,17,13.02,SO,1600397758
Blagoyevo,63.37,47.92,38.61,82,100,8.16,RU,1600397759
Seoul,37.57,126.98,77.0,41,1,3.36,KR,1600397587
Atherton,-17.27,145.48,81.0,69,75,14.99,AU,1600397721
Ballina,54.12,-9.17,54.0,95,37,1.01,IE,1600397759
Leshukonskoye,64.9,45.76,32.59,97,0,5.19,RU,1600397759
Anadyr,64.75,177.48,44.6,75,75,11.18,RU,1600397760
Samarai,-10.62,150.67,79.93,86,100,15.1,PG,1600397760
Chapais,49.78,-74.85,35.6,74,1,5.82,CA,1600397760
Sakakah,29.97,40.21,84.2,13,0,4.7,SA,1600397771
Noshiro,40.2,140.02,71.6,94,75,6.93,JP,1600397771
Kailua,21.4,-157.74,82.4,58,40,11.41,US,1600397771
Copiapó,-27.37,-70.33,53.6,81,0,4.7,CL,1600397772
Egvekinot,66.32,-179.17,38.55,74,92,9.86,RU,1600397772
Waingapu,-9.66,120.26,86.92,51,20,9.13,ID,1600397772
Kalianget,-7.05,113.93,85.41,64,10,15.35,ID,1600397773
Zhigansk,66.77,123.37,51.93,48,0,2.33,RU,1600397552
Coyhaique,-45.58,-72.07,41.0,80,75,6.93,CL,1600397773
Prado,-17.34,-39.22,71.78,79,61,8.66,BR,1600397773
Diré,12.28,-10.97,74.34,94,85,1.86,ML,1600397774
Nelson Bay,-32.72,152.15,66.99,88,90,13.87,AU,1600397774
Dongsheng,39.82,109.98,62.35,30,0,2.73,CN,1600397775
Turtas,58.94,69.13,47.53,90,100,9.57,RU,1600397775
Bowen,-20.02,148.23,80.6,61,40,20.8,AU,1600397775
Jejūri,18.28,74.17,74.66,86,100,8.99,IN,1600397775
Sterling,39.01,-77.43,66.99,100,90,4.7,US,1600397776
Verkhnevilyuysk,63.45,120.32,55.65,57,0,2.64,RU,1600397628
Lithakia,37.72,20.83,73.4,94,90,28.86,GR,1600397776
Richards Bay,-28.78,32.04,61.3,88,3,6.13,ZA,1600397776
Roald,62.58,6.13,59.0,72,100,21.92,NO,1600397776
Milton,-46.12,169.97,52.0,60,97,17.0,NZ,1600397777
Fairbanks,64.84,-147.72,62.6,55,20,6.93,US,1600397719
Taksimo,56.34,114.88,56.62,50,0,0.76,RU,1600397777
Pappadátes,39.31,20.79,75.0,60,99,20.8,GR,1600397777
Londa,15.47,74.52,73.4,94,75,4.7,IN,1600397778
Horsham,-36.72,142.2,58.98,80,100,12.66,AU,1600397664
Nantucket,41.28,-70.1,68.0,82,90,4.7,US,1600397778
Rosetown,51.55,-108.0,53.01,58,1,7.0,CA,1600397778
Kalmunai,7.42,81.82,84.29,62,79,2.44,LK,1600397779
Sabang,14.7,120.25,86.0,74,40,6.93,PH,1600397779
Zyryanskoye,56.83,86.63,54.81,79,3,13.04,RU,1600397779
Géri,35.1,33.42,75.2,77,20,3.36,CY,1600397779
Biak,-0.91,122.88,84.2,59,59,2.8,ID,1600397780
Massaguet,12.48,15.44,77.0,88,20,8.05,TD,1600397780
Loa Janan,-0.58,117.09,91.8,52,77,2.95,ID,1600397780
Oistins,13.07,-59.53,77.0,83,20,5.82,BB,1600397781
Lamar,33.67,-95.58,71.6,78,1,6.93,US,1600397781
Safi,32.3,-9.24,69.46,90,100,9.66,MA,1600397781
Redmond,47.67,-122.12,66.99,86,6,4.25,US,1600397757
Novikovo,51.15,37.89,49.3,78,66,10.49,RU,1600397782
Taoudenni,22.68,-3.98,89.64,18,15,12.8,ML,1600397782
Caramay,10.18,119.24,83.68,73,100,9.55,PH,1600397782
Natchitoches,31.77,-93.13,77.0,83,40,6.93,US,1600397783
Alekseyevsk,57.84,108.35,58.17,50,0,5.39,RU,1600397783
Am Timan,11.03,20.28,72.73,94,100,4.05,TD,1600397783
Santa Cecília,-26.96,-50.43,54.32,100,74,2.48,BR,1600397783
Río Gallegos,-51.62,-69.22,35.6,69,9,28.86,AR,1600397794
Tirumullaivāsal,11.23,79.83,82.94,71,97,10.29,IN,1600397794
Jos,9.92,8.9,63.86,98,100,2.13,NG,1600397794
Voyvozh,62.89,54.96,36.52,86,100,3.78,RU,1600397795
Shirokiy,49.76,129.52,60.8,70,63,7.07,RU,1600397795
Contai,21.78,87.75,86.18,76,100,5.66,IN,1600397795
Sambava,-14.27,50.17,67.64,86,58,8.77,MG,1600397615
Orillia,44.61,-79.42,50.0,78,0,3.0,CA,1600397614
Marivan,35.52,46.18,60.84,33,0,5.44,IR,1600397796
Sechura,-5.56,-80.82,61.86,83,12,10.11,PE,1600397796
Kalemie,-5.95,29.19,77.25,53,70,1.03,CD,1600397796
Upata,8.01,-62.4,82.0,81,92,1.99,VE,1600397797
Mariënburg,5.85,-55.02,81.0,88,1,3.0,SR,1600397797
Valparaíso,-33.04,-71.63,66.2,63,0,9.17,CL,1600397612
Hyères,43.12,6.12,66.2,82,0,3.36,FR,1600397579
Tianpeng,30.99,103.94,73.4,73,98,4.47,CN,1600397798
Arkhangelsk,64.54,40.54,33.8,93,40,6.71,RU,1600397798
Manokwari,-0.87,134.08,84.85,64,0,3.62,ID,1600397798
Kasangulu,-4.59,15.17,73.4,88,75,4.43,CD,1600397799
Uzhur,55.3,89.83,55.87,65,100,9.84,RU,1600397799
